[{"id":"3701150015","name":"忠誠牙醫診所","telphone":"02-28310715","address":"台北市士林區忠誠路２段１號１樓","lat":25.10869,"lng":121.5308},{"id":"3701150024","name":"大雅牙醫診所","telphone":"02-28331888","address":"台北市士林區忠誠路１段１８６號１樓","lat":25.11645,"lng":121.5337},{"id":"3701150042","name":"賴牙醫診所","telphone":"02-28345872","address":"台北市士林區中山北路６段１６１號２樓－３","lat":25.12366,"lng":121.53222},{"id":"3701150060","name":"華泰牙醫診所","telphone":"02-28738988","address":"台北市士林區中山北路７段１８６號２樓","lat":25.10769,"lng":121.52547},{"id":"3701150097","name":"嘉民牙醫診所","telphone":"02-28315661","address":"台北市士林區中山北路６段１６８號２樓","lat":25.11912,"lng":121.53018},{"id":"3701150131","name":"弘佑牙醫診所","telphone":"02-28711299","address":"台北市士林區中山北路７段６４號２樓","lat":25.11912,"lng":121.53018},{"id":"3701150140","name":"第一牙醫診所","telphone":"02-28359352","address":"台北市士林區德行東路４６巷４弄３號１樓","lat":25.10663,"lng":121.52607},{"id":"3701150159","name":"光華牙醫診所","telphone":"02-28124507","address":"台北市士林區延平北路５段１８６號２樓","lat":25.07919,"lng":121.51106},{"id":"3701150168","name":"雅鄰牙醫診所","telphone":"02-28127890","address":"台北市士林區延平北路５段１２５號","lat":25.07919,"lng":121.51106},{"id":"3701150177","name":"親親牙醫診所","telphone":"02-28357730","address":"台北市士林區中山北路５段６２２號２樓","lat":25.09664,"lng":121.52792},{"id":"3701150195","name":"陳慶成牙醫診所","telphone":"02-28333452","address":"台北市士林區中正路２４０號１樓","lat":25.09532,"lng":121.52521},{"id":"3701150202","name":"長虹牙醫診所","telphone":"02-28817752","address":"台北市士林區福港街１２１號","lat":25.08823,"lng":121.51813},{"id":"3701150239","name":"宏誠牙醫診所","telphone":"02-28739533","address":"台北市士林區中山北路６段４５０巷７弄１號１樓","lat":25.11394,"lng":121.528},{"id":"3701150266","name":"凱健牙醫診所","telphone":"02-28728116","address":"台北市士林區天母東路８巷２７－６號１樓","lat":25.11693,"lng":121.53234},{"id":"3701150284","name":"喬森牙醫診所","telphone":"02-28858625","address":"台北市士林區後港街１８號","lat":25.08287,"lng":121.52285},{"id":"3701150293","name":"信誼牙醫診所","telphone":"02-28727225","address":"台北市士林區天母北路１２－１號２樓","lat":25.11932,"lng":121.52601},{"id":"3701150328","name":"光和牙醫診所","telphone":"02-28834040","address":"台北市士林區基河路２３８－３號１樓","lat":25.09119,"lng":121.52143},{"id":"3701150337","name":"信美牙醫診所","telphone":"02-28118755","address":"台北市士林區延平北路５段１６３巷７號","lat":25.07926,"lng":121.51103},{"id":"3701150346","name":"端容牙醫診所","telphone":"02-28313248","address":"台北市士林區中正路３２０號１樓","lat":25.09473,"lng":121.52263},{"id":"3701150364","name":"士東牙醫診所","telphone":"02-28715423","address":"台北市士林區中山北路６段４３３號１樓","lat":25.09094,"lng":121.52717},{"id":"3701150373","name":"蘇鴻輝牙醫診所","telphone":"02-28119909","address":"台北市士林區延平北路６段７６號","lat":25.09645,"lng":121.49539},{"id":"3701150382","name":"欣光牙醫診所","telphone":"02-28357070","address":"台北市士林區華榮街３８號","lat":25.09602,"lng":121.5235},{"id":"3701150417","name":"德行牙醫診所","telphone":"02-28323500","address":"台北市士林區德行東路１８７號","lat":25.10893,"lng":121.53154},{"id":"3701150426","name":"亨皓牙醫診所","telphone":"02-28315773","address":"台北市士林區德行西路１２３號１樓","lat":25.10385,"lng":121.52041},{"id":"3701150435","name":"華國牙醫診所","telphone":"02-28125463","address":"台北市士林區重慶北路４段４９巷４７號","lat":25.08094,"lng":121.51283},{"id":"3701150444","name":"瑞陽牙醫診所","telphone":"02-28366664","address":"台北市士林區德行東路３５５號","lat":25.11053,"lng":121.53847},{"id":"3701150515","name":"新民牙醫診所","telphone":"02-28815897","address":"台北市士林區華齡街１４號１樓","lat":25.08294,"lng":121.51955},{"id":"3701150560","name":"永芳牙醫診所","telphone":"02-28711339","address":"台北市士林區天母東路１－２號１樓","lat":25.11827,"lng":121.53102},{"id":"3701150579","name":"愛齒牙醫診所","telphone":"02-28342841","address":"台北市士林區中正路２３４號","lat":25.0954,"lng":121.52579},{"id":"3701150588","name":"劉牙醫診所","telphone":"02-28731457","address":"台北市士林區天母西路２８號２樓","lat":25.11831,"lng":121.52661},{"id":"3701150604","name":"健群牙醫診所","telphone":"02-28719781","address":"台北市士林區天母西路３號４樓－６","lat":25.11894,"lng":121.52918},{"id":"3701150622","name":"發興牙醫診所","telphone":"02-28828430","address":"台北市士林區文林路１４６號２樓","lat":25.08885,"lng":121.52669},{"id":"3701150640","name":"慶仁牙醫診所","telphone":"02-28351597","address":"台北市士林區德行東路６號１樓","lat":25.10764,"lng":121.52687},{"id":"3701150659","name":"弘美牙醫診所","telphone":"02-28111936","address":"台北市士林區延平北路６段１２６號１樓","lat":25.07902,"lng":121.51093},{"id":"3701150695","name":"周欽定牙醫診所","telphone":"02-28121459","address":"台北市士林區延平北路５段２７７號","lat":25.08544,"lng":121.50952},{"id":"3701150702","name":"永慶牙醫診所","telphone":"02-28817289","address":"台北市士林區大東路１２７號","lat":25.09169,"lng":121.52543},{"id":"3701150711","name":"社子黃牙醫診所","telphone":"02-28114397","address":"台北市士林區社子街７號","lat":25.08774,"lng":121.50844},{"id":"3701150720","name":"昭亮牙醫診所","telphone":"02-28821573","address":"台北市士林區大西路２５號","lat":25.09023,"lng":121.52423},{"id":"3701150748","name":"嚴永強牙醫診所","telphone":"02-28733272","address":"台北市士林區天母西路３９號４樓","lat":25.1185,"lng":121.52752},{"id":"3701150775","name":"立安牙醫診所","telphone":"02-28711611","address":"台北市士林區中山北路７段１６５－３號","lat":25.11912,"lng":121.53018},{"id":"3701150784","name":"千賀牙醫診所","telphone":"02-28347370","address":"台北市士林區士東路３２號","lat":25.1118,"lng":121.52732},{"id":"3701150819","name":"永泰牙醫診所","telphone":"02-28852892","address":"台北市士林區通河街１１９號","lat":25.08066,"lng":121.52148},{"id":"3701150828","name":"安玉牙醫診所","telphone":"02-28857892","address":"台北市士林區通河街１４１巷１０號","lat":25.08102,"lng":121.52098},{"id":"3701150873","name":"學府牙醫診所","telphone":"02-28333896","address":"台北市士林區忠義街１１７－１號","lat":25.10744,"lng":121.53274},{"id":"3701150891","name":"鄭文韶牙醫診所","telphone":"02-28735335","address":"台北市士林區天母東路６３號２樓","lat":25.11822,"lng":121.53403},{"id":"3701150908","name":"祥瑞牙醫診所","telphone":"02-28335611","address":"台北市士林區文林路４８７號１樓","lat":25.09625,"lng":121.52419},{"id":"3701150926","name":"以新牙醫診所","telphone":"02-28740162","address":"台北市士林區中山北路７段５６－３號","lat":25.11912,"lng":121.53018},{"id":"3701150935","name":"博浩牙醫診所","telphone":"02-28161988","address":"台北市士林區社正路２３號","lat":25.08888,"lng":121.50918},{"id":"3701150999","name":"揚明牙醫診所","telphone":"02-28336006","address":"台北市士林區德行東路１０９巷１０５號１樓","lat":25.11113,"lng":121.52866},{"id":"3701151183","name":"念華牙醫診所","telphone":"02-28357311","address":"台北市士林區忠誠路１段１００巷１４號地下樓","lat":25.10876,"lng":121.53006},{"id":"3701151192","name":"永信牙醫診所","telphone":"02-28747234","address":"台北市士林區中山北路６段４２１號２樓","lat":25.11377,"lng":121.52689},{"id":"3701151209","name":"昇陽牙醫診所","telphone":"02-28748099","address":"台北市士林區天母西路４０－１號４樓","lat":25.11824,"lng":121.52599},{"id":"3701151227","name":"芝山牙醫診所","telphone":"02-28368627","address":"台北市士林區至誠路２段６６號１樓","lat":25.10181,"lng":121.52844},{"id":"3701151352","name":"威廉牙醫診所","telphone":"02-28748013","address":"台北市士林區天母北路８７巷２弄３號１樓","lat":25.1226,"lng":121.52699},{"id":"3701151361","name":"世安牙醫診所","telphone":"02-28816182","address":"台北市士林區福港街４９號１樓","lat":25.09023,"lng":121.51846},{"id":"3701151405","name":"林葉牙醫診所","telphone":"02-28735702","address":"台北市士林區天玉街３８巷２０號６樓","lat":25.11914,"lng":121.52991},{"id":"3701151423","name":"博信牙醫診所","telphone":"02-28853220","address":"台北市士林區通河街１７３號","lat":25.08145,"lng":121.51965},{"id":"3701151432","name":"家福牙醫診所","telphone":"02-28322112","address":"台北市士林區德行西路６８號","lat":25.105,"lng":121.52262},{"id":"3701151450","name":"經緯牙醫診所","telphone":"02-28333199","address":"台北市士林區德行東路２７５號１樓","lat":25.11007,"lng":121.53544},{"id":"3701151478","name":"揚信牙醫診所","telphone":"02-28114498","address":"台北市士林區延平北路５段２４４巷１７號１樓","lat":25.08696,"lng":121.50907},{"id":"3701151496","name":"廣都牙醫診所","telphone":"02-28815516","address":"台北市士林區華齡街４９號","lat":25.08417,"lng":121.51932},{"id":"3701151503","name":"福元牙醫診所","telphone":"02-28733620","address":"台北市士林區士東路６５號","lat":25.11207,"lng":121.52808},{"id":"3701151512","name":"佳樺牙醫診所","telphone":"02-28319062","address":"台北市士林區忠誠路２段１０巷４號１樓","lat":25.10866,"lng":121.5298},{"id":"3701151530","name":"吳越夫牙醫診所","telphone":"02-28352056","address":"台北市士林區士東路２６６巷５弄１７－１號","lat":25.11246,"lng":121.53671},{"id":"3701151549","name":"東成牙醫診所","telphone":"02-28828322","address":"台北市士林區小北街２３號１－２樓","lat":25.08917,"lng":121.52615},{"id":"3701151610","name":"育生牙醫診所","telphone":"02-28313677","address":"台北市士林區中山北路５段６９９巷２－１號１樓","lat":25.09765,"lng":121.52716},{"id":"3701151629","name":"福國牙醫診所","telphone":"02-28338642","address":"台北市士林區福國路１５巷１２號","lat":25.10141,"lng":121.52453},{"id":"3701151638","name":"邱瑋光牙醫診所","telphone":"02-28765211","address":"台北市士林區天母東路１－１號３樓","lat":25.11835,"lng":121.53096},{"id":"3701151647","name":"茂林牙醫診所","telphone":"02-28831958","address":"台北市士林區小北街１－３號","lat":25.09024,"lng":121.52673},{"id":"3701151683","name":"三船牙醫診所","telphone":"02-28736170","address":"台北市士林區天母東路１－２號４樓","lat":25.11827,"lng":121.53102},{"id":"3701151709","name":"傅家義牙醫診所","telphone":"02-28755119","address":"台北市士林區中山北路６段４７０號２樓","lat":25.11478,"lng":121.52774},{"id":"3701151718","name":"有仁牙醫診所","telphone":"02-28737711","address":"台北市士林區忠誠路二段１５４巷１３號１樓","lat":25.11523,"lng":121.53219},{"id":"3701151763","name":"佑成牙醫診所","telphone":"02-28727999","address":"台北市士林區天母東路８巷２７號２樓－１","lat":25.11692,"lng":121.53198},{"id":"3701151772","name":"保齡牙醫診所","telphone":"02-28356011","address":"台北市士林區忠義街８１號１樓","lat":25.10612,"lng":121.53207},{"id":"3701156688","name":"天母牙醫診所","telphone":"02-28713865","address":"台北市士林區中山北路７段２９號４樓","lat":25.10345,"lng":121.52487},{"id":"3701156713","name":"福臨牙醫診所","telphone":"02-28315148","address":"台北市士林區志成街２５號地下－２","lat":25.09697,"lng":121.53001},{"id":"3701156722","name":"吳方棟牙醫診所","telphone":"02-28762020","address":"台北市士林區中山北路６段４０５巷６２號","lat":25.08364,"lng":121.52572},{"id":"3701156731","name":"哲瑞牙醫診所","telphone":"02-88113966","address":"台北市士林區延平北路５段１３５號","lat":25.07919,"lng":121.51106},{"id":"3701156740","name":"許牙醫診所","telphone":"02-28368346","address":"台北市士林區忠誠路１段５７號１樓","lat":25.10397,"lng":121.52785},{"id":"3701156768","name":"立宸牙醫診所","telphone":"02-28336698","address":"台北市士林區忠誠路２段４２號１樓","lat":25.11037,"lng":121.52993},{"id":"3701156777","name":"得士登牙醫診所","telphone":"02-88665848","address":"台北市士林區中山北路６段１５０號２樓","lat":25.11912,"lng":121.53018},{"id":"3701156786","name":"旺德牙醫診所","telphone":"02-28760616","address":"台北市士林區天母東路８巷３７號","lat":25.11653,"lng":121.53168},{"id":"3701156795","name":"宗賢牙醫診所","telphone":"02-28883090","address":"台北市士林區承德路４段２３６號１樓","lat":25.08884,"lng":121.52114},{"id":"3701156875","name":"京東牙醫診所","telphone":"02-28349541","address":"台北市士林區士東路２００巷７０號","lat":25.11032,"lng":121.53393},{"id":"3701156884","name":"劭陽牙醫診所","telphone":"02-28313352","address":"台北市士林區忠義街１１７號１樓","lat":25.1075,"lng":121.53275},{"id":"3701156893","name":"嘉華牙醫診所","telphone":"02-28715010","address":"台北市士林區天母西路５６號２樓","lat":25.11843,"lng":121.52455},{"id":"3701156919","name":"國聯牙醫診所","telphone":"02-28724051","address":"台北市士林區天母北路３２號１樓","lat":25.12022,"lng":121.52638},{"id":"3701156928","name":"維美牙醫診所","telphone":"02-28820228","address":"台北市士林區文林路４２８號","lat":25.09451,"lng":121.52486},{"id":"3701156937","name":"大偉牙醫診所","telphone":"02-28767658","address":"台北市士林區天玉街３８巷１０號","lat":25.12061,"lng":121.52933},{"id":"3701156964","name":"美加牙醫診所","telphone":"02-28743311","address":"台北市士林區天母東路８巷２１－１號１樓","lat":25.11736,"lng":121.532},{"id":"3701156973","name":"正齡牙醫診所","telphone":"02-28339903","address":"台北市士林區中正路４５２號","lat":25.0929,"lng":121.51885},{"id":"3701157023","name":"國維牙醫診所","telphone":"02-28344265","address":"台北市士林區忠誠路１段８４號１樓","lat":25.11258,"lng":121.53088},{"id":"3701157103","name":"三愛牙醫診所","telphone":"02-28733372","address":"台北市士林區天母東路６９巷１之１號１樓","lat":25.11849,"lng":121.53441},{"id":"3701157121","name":"中美牙醫診所","telphone":"02-28312206","address":"台北市士林區忠誠路２段６４號３樓","lat":25.10869,"lng":121.53068},{"id":"3701157130","name":"天泉牙醫診所","telphone":"02-28738711","address":"台北市士林區中山北路６段７２６號３樓","lat":25.11507,"lng":121.52797},{"id":"3701157149","name":"格子牙醫診所","telphone":"02-28715520","address":"台北市士林區天母西路４０－１號３樓","lat":25.11824,"lng":121.52599},{"id":"3701157167","name":"楊恭熙牙醫診所","telphone":"02-28838549","address":"台北市士林區大東路１３７號１樓","lat":25.09193,"lng":121.52537},{"id":"3701157176","name":"芳川牙醫診所","telphone":"02-28812214","address":"台北市士林區大西路１９號","lat":25.09013,"lng":121.5242},{"id":"3701157185","name":"宏仁牙醫診所","telphone":"02-28117543","address":"台北市士林區延平北路６段１５８號","lat":25.08708,"lng":121.50928},{"id":"3701157201","name":"賓大牙醫診所","telphone":"02-28342255","address":"台北市士林區中山北路６段２１４號","lat":25.08654,"lng":121.52636},{"id":"3701157247","name":"戴得育牙醫診所","telphone":"02-28761168","address":"台北市士林區天母西路２７號２樓","lat":25.11849,"lng":121.52788},{"id":"3701157274","name":"聖林牙醫診所","telphone":"02-28336120","address":"台北市士林區德行東路６７號","lat":25.10732,"lng":121.52704},{"id":"3701157283","name":"達美牙醫診所","telphone":"02-28380201","address":"台北市士林區忠誠路一段１５９號","lat":25.10694,"lng":121.53021},{"id":"3701157309","name":"天玉牙醫診所","telphone":"02-28727843","address":"台北市士林區天玉街８１巷４號１樓","lat":25.12285,"lng":121.53097},{"id":"3701157318","name":"美齊牙醫診所","telphone":"02-28736677","address":"台北市士林區天母東路８巷７５號","lat":25.11509,"lng":121.53081},{"id":"3701157336","name":"長茂牙醫診所","telphone":"02-28366566","address":"台北市士林區磺溪街４１號１樓","lat":25.10683,"lng":121.52293},{"id":"3701157345","name":"博格牙醫診所","telphone":"02-28325510","address":"台北市士林區福國路９５號１樓","lat":25.1014,"lng":121.52214},{"id":"3701157372","name":"倍爾牙醫診所","telphone":"02-28856910","address":"台北市士林區劍潭路６０號１樓","lat":25.08345,"lng":121.52168},{"id":"3701157381","name":"可潔牙醫診所","telphone":"02-28866062","address":"台北市士林區通河街６２號","lat":25.08067,"lng":121.52095},{"id":"3701157390","name":"合聖牙醫診所","telphone":"02-28125358","address":"台北市士林區延平北路５段２４１號第一層","lat":25.08458,"lng":121.50973},{"id":"3701157407","name":"維育牙醫診所","telphone":"02-28380071","address":"台北市士林區中正路１２０號","lat":25.09611,"lng":121.52881},{"id":"3701157416","name":"米蘭牙醫診所","telphone":"02-28816600","address":"台北市士林區承德路四段２８１號","lat":25.08992,"lng":121.51941},{"id":"3701157425","name":"維安牙醫診所","telphone":"02-28748866","address":"台北市士林區士東路９１巷３０號","lat":25.11328,"lng":121.52969},{"id":"3701157443","name":"彭志綱牙醫診所","telphone":"02-28769322","address":"台北市士林區天母東路７７號","lat":25.11839,"lng":121.53505},{"id":"3701157452","name":"和彩牙醫診所","telphone":"02-28315550","address":"台北市士林區文昌路１２號","lat":25.09491,"lng":121.52183},{"id":"3701157461","name":"米蘭美學牙醫診所","telphone":"02-28815505","address":"台北市士林區承德路四段２８１號３樓","lat":25.08992,"lng":121.51941},{"id":"3701157470","name":"悅庭牙醫診所","telphone":"02-28342727","address":"台北市士林區中正路１７２號２樓","lat":25.09586,"lng":121.52761},{"id":"3701157489","name":"英倫牙醫診所","telphone":"02-28168800","address":"台北市士林區延平北路５段３０７號","lat":25.08618,"lng":121.50931},{"id":"3701157498","name":"民軒牙醫診所","telphone":"02-28118736","address":"台北市士林區社子街３４號","lat":25.08744,"lng":121.50787}]