[{"name":"市立士林國小 ","address":"臺北市士林區福德里大東路165號","lat":25.09282,"lng":121.52507},{"name":"市立士東國小 ","address":"臺北市士林區蘭雅里中山北路6段392號","lat":25.09088,"lng":121.52781},{"name":"市立福林國小 ","address":"臺北市士林區福志里福志路75號","lat":25.09868,"lng":121.52969},{"name":"市立陽明山國小 ","address":"臺北市士林區新安里仰德大道3段61號","lat":25.10605,"lng":121.54455},{"name":"市立社子國小 ","address":"臺北市士林區永倫里延平北路六段308號","lat":25.0898,"lng":121.50294},{"name":"市立雨聲國小 ","address":"臺北市士林區岩山里至誠路1段62巷70號","lat":25.10172,"lng":121.52829},{"name":"市立富安國小 ","address":"臺北市士林區富洲里延平北路8段135號","lat":25.09775,"lng":121.49374},{"name":"市立劍潭國小 ","address":"臺北市士林區明勝里通河街16號","lat":25.07994,"lng":121.52297},{"name":"市立溪山實小 ","address":"臺北市士林區溪山里至善路3段199號","lat":25.09737,"lng":121.54337},{"name":"市立平等國小 ","address":"臺北市士林區平等里平菁街101號","lat":25.12907,"lng":121.57631},{"name":"市立百齡國小 ","address":"臺北市士林區福中里福港街205號","lat":25.08619,"lng":121.51782},{"name":"市立雙溪國小 ","address":"臺北市士林區翠山里中社路2段66號","lat":25.10609,"lng":121.56382},{"name":"市立葫蘆國小 ","address":"臺北市士林區環河北路3段95號","lat":25.08375,"lng":121.50703},{"name":"市立雨農國小 ","address":"臺北市士林區名山里忠義街1號","lat":25.10529,"lng":121.52993},{"name":"市立天母國小 ","address":"臺北市士林區天玉里天玉街12號","lat":25.11973,"lng":121.52745},{"name":"市立文昌國小 ","address":"臺北市士林區文林路615巷20號","lat":25.09961,"lng":121.52091},{"name":"市立芝山國小 ","address":"臺北市士林區芝山里德行東路285號","lat":25.11038,"lng":121.53643},{"name":"市立蘭雅國小 ","address":"臺北市士林區蘭興里磺溪街57號","lat":25.1084,"lng":121.52315},{"name":"市立三玉國小 ","address":"臺北市士林區三玉里天母東路116號","lat":25.11799,"lng":121.53732},{"name":"市立士林國中 ","address":"臺北市士林區福德里中正路345號","lat":25.09434,"lng":121.52257},{"name":"市立蘭雅國中 ","address":"臺北市士林區三玉里忠誠路2段51號","lat":25.11057,"lng":121.53106},{"name":"市立至善國中 ","address":"臺北市士林區臨溪里至善路2段360號","lat":25.10357,"lng":121.55548},{"name":"市立格致國中 ","address":"臺北市士林區陽明里仰德大道四段75號","lat":25.1311,"lng":121.54681},{"name":"市立福安國中 ","address":"臺北市士林區福安里延平北路7段250號","lat":25.10334,"lng":121.48739},{"name":"市立天母國中 ","address":"臺北市士林區天和里天母東路120號","lat":25.11797,"lng":121.53816},{"name":"私立華興小學 ","address":"臺北市士林區芝山里仰德大道1段101號","lat":25.10222,"lng":121.5402},{"name":"市立陽明高中(國中部) ","address":"臺北市士林區後港里中正路510號","lat":25.09184,"lng":121.5172},{"name":"市立百齡高中(國中部) ","address":"臺北市士林區義信里承德路4段177號","lat":25.09096,"lng":121.51544},{"name":"私立衛理女中(國中部) ","address":"臺北市士林區翠山里至善路2段321號","lat":25.10172,"lng":121.55227},{"name":"私立華興中學(國中部) ","address":"臺北市士林區芝山里仰德大道1段101號","lat":25.10222,"lng":121.5402},{"name":"市立陽明高中 ","address":"臺北市士林區後港里中正路510號","lat":25.09184,"lng":121.5172},{"name":"市立百齡高中 ","address":"臺北市士林區義信里承德路4段177號","lat":25.09096,"lng":121.51544},{"name":"私立泰北高中 ","address":"臺北市士林區福林里福林路240號","lat":25.09732,"lng":121.53394},{"name":"私立衛理女中 ","address":"臺北市士林區翠山里至善路2段321號","lat":25.10172,"lng":121.55227},{"name":"私立華興中學 ","address":"臺北市士林區芝山里仰德大道1段101號","lat":25.10222,"lng":121.5402},{"name":"市立士林高商 ","address":"臺北市士林區後港里士商路150號","lat":25.09498,"lng":121.51634},{"name":"私立華岡藝校 ","address":"臺北市士林區建業路73巷8號","lat":25.13707,"lng":121.54895},{"name":"臺北市 市立啟智學校 ","address":"11153 (士林區)臺北市忠誠路二段207巷3號 ","lat":25.11655,"lng":121.53636},{"name":"臺北市 市立啟明學校 ","address":"11153 (士林區)臺北市忠誠路二段207巷1號 ","lat":25.11654,"lng":121.53522}]